[{"id": "TUK12TWH5XI", "name": "Steven Kowalski", "address": "Kurfuerstendamm  86 Berlin", "lat": 52.4990615, "lng": 13.3017123}, {"id": "HQG68UET4OG", "name": "Teagan Frick", "address": "Oldesloer Strasse  35 Berlin", "lat": 52.53353, "lng": 13.14859}, {"id": "IEF64FSU5NK", "name": "Phelan Specht", "address": "Kapuzinerstra\u00dfe 16 Berlin", "lat": 52.52000659999999, "lng": 13.404954}, {"id": "OJO12URB6PH", "name": "Kadeem Meyer", "address": "Lange Strasse  79 Berlin", "lat": 52.5129214, "lng": 13.432149}, {"id": "JEQ99TRG0LD", "name": "Hamilton Singer", "address": "Landsberger Allee  18 Berlin", "lat": 52.52311410000001, "lng": 13.4361314}, {"id": "JCE83IQI5IK", "name": "Neville Schwarz", "address": "Rosenstrasse  66 Berlin", "lat": 52.5216152, "lng": 13.4046492}, {"id": "EOX86CDT0XG", "name": "TaShya Kowalski", "address": "Buttermelcherstra\u00dfe 47 Berlin", "lat": 48.132071, "lng": 11.5799328}, {"id": "LCF21KCF5EM", "name": "Sopoline Peters", "address": "Ledererstra\u00dfe 66 Berlin", "lat": 48.1366181, "lng": 11.5797147}, {"id": "ZXE47LJZ4FI", "name": "Kerry Fiedler", "address": "Prinzregentenstra\u00dfe 58 Berlin", "lat": 52.4844111, "lng": 13.3332112}, {"id": "SLG86YNI7NW", "name": "Leonard Winkler", "address": "Westendstra\u00dfe 80 Berlin", "lat": 52.4443589, "lng": 13.5629116}, {"id": "IBS13LBW4SY", "name": "Lars Schr\u00c3\u00b6der", "address": "Viktualienmarkt 95 Berlin", "lat": 52.52000659999999, "lng": 13.404954}, {"id": "ODT63ZJU3HT", "name": "Duncan Neumann", "address": "Rosenstrasse  79 Berlin", "lat": 52.5216152, "lng": 13.4046492}, {"id": "KME66EEP5WW", "name": "Uriel Seidel", "address": "Rosenstrasse  93 Berlin", "lat": 52.5216152, "lng": 13.4046492}, {"id": "BCQ66XUR2YU", "name": "Nomlanga Kirch", "address": "Martin-Luther-Stra\u00dfe 85 Berlin", "lat": 52.48711170000001, "lng": 13.3451923}, {"id": "XRZ21QBA5ZR", "name": "Cecilia Fiedler", "address": "Ohmstra\u00dfe 88 Berlin", "lat": 52.5115353, "lng": 13.4178545}, {"id": "FBQ64CHR7GS", "name": "Serena Richter", "address": "Buttermelcherstra\u00dfe 20 Berlin", "lat": 48.1316565, "lng": 11.5795865}, {"id": "ANY10KDP1SY", "name": "Ferdinand Hartmann", "address": "Ohmstra\u00dfe 41 Berlin", "lat": 52.5116338, "lng": 13.4181111}, {"id": "YNU82UIQ7ZK", "name": "Oscar Graf", "address": "Oldesloer Strasse  30 Berlin", "lat": 52.5991565, "lng": 13.4264339}, {"id": "ENS57EIQ8LQ", "name": "Kylie M\u00c3\u00bcller", "address": "Fallmerayerstra\u00dfe 16 Berlin", "lat": 52.52000659999999, "lng": 13.404954}, {"id": "SFB34YEH8OR", "name": "Hoyt Richter", "address": "Lange Strasse  46 Berlin", "lat": 52.511557, "lng": 13.4356425}, {"id": "YST41QMJ6BS", "name": "Maxine Merkle", "address": "Augustenstra\u00dfe 14 Berlin", "lat": 52.5261648, "lng": 13.3950171}, {"id": "LNL08PGR7QE", "name": "Kerry Martin", "address": "Schwanseestra\u00dfe 41 Berlin", "lat": 50.984022, "lng": 11.316491}, {"id": "YSH50RDV7RC", "name": "Malcolm Becker", "address": "Isartorpl. 53 Berlin", "lat": 48.1347006, "lng": 11.5820222}, {"id": "WQR64NPJ1MW", "name": "Cameran Schmid", "address": "Stollbergstra\u00dfe 73 Berlin", "lat": 52.4663439, "lng": 13.379663}, {"id": "TZI83GQR1WW", "name": "Kylee Cla\u00c3\u0178en", "address": "Westendstra\u00dfe 22 Berlin", "lat": 52.4443619, "lng": 13.5628838}, {"id": "BAB53HFD3HW", "name": "Karly Martin", "address": "Adalbertstra\u00dfe 67 Berlin", "lat": 52.5049383, "lng": 13.4217056}, {"id": "SWV17FOE3JT", "name": "Pandora Pohl", "address": "Stollbergstra\u00dfe 11 Berlin", "lat": 52.46667, "lng": 13.37998}, {"id": "VEV61INF5WF", "name": "Cheyenne Scholz", "address": "Lange Strasse  89 Berlin", "lat": 52.5134858, "lng": 13.4280938}, {"id": "FGH16MJK4CL", "name": "Lesley Vogt", "address": "Rosenstrasse  62 Berlin", "lat": 52.5216152, "lng": 13.4046492}, {"id": "BBM69CBZ8JD", "name": "Tana Kr\u00c3\u00a4mer", "address": "Stollbergstra\u00dfe 94 Berlin", "lat": 52.4663439, "lng": 13.379663}, {"id": "DIO26EAC3PL", "name": "Shad Martin", "address": "Helene-Mayer-Ring 5 Berlin", "lat": 48.1806211, "lng": 11.5537218}, {"id": "IHJ31HEY6OY", "name": "Patrick Werner", "address": "Viktualienmarkt 34 Berlin", "lat": 52.52000659999999, "lng": 13.404954}, {"id": "RFT56DOI0BL", "name": "Faith Gr\u00c3\u00bcn", "address": "Leopoldstra\u00dfe 79 Berlin", "lat": 52.5035299, "lng": 13.4858389}, {"id": "PFH68OFT6GL", "name": "Jelani Noack", "address": "Schwanseestra\u00dfe 42 Berlin", "lat": 50.9840623, "lng": 11.3143061}, {"id": "SYY82CUV2JD", "name": "Lewis Diener", "address": "Augustenstra\u00dfe 23 Berlin", "lat": 52.5268598, "lng": 13.3965392}, {"id": "SPS22RUR7HH", "name": "Michael Brugger", "address": "Viktualienmarkt 97 Berlin", "lat": 52.52000659999999, "lng": 13.404954}, {"id": "JPZ38XPU6PN", "name": "Ezra Schinacher", "address": "Augustenstra\u00dfe 38 Berlin", "lat": 52.5278281, "lng": 13.4020161}, {"id": "OZB63CII3QW", "name": "Maia Pfarrer", "address": "Rhinstrasse  83 Berlin", "lat": 52.5264439, "lng": 13.5183918}, {"id": "WVW58OCK9UC", "name": "Echo Schinacher", "address": "Kapuzinerstra\u00dfe 10 Berlin", "lat": 52.52000659999999, "lng": 13.404954}, {"id": "QUI30XWM0XU", "name": "Noah Kienzle", "address": "Augustenstra\u00dfe 30 Berlin", "lat": 52.52809999999999, "lng": 13.39889}, {"id": "OBS33CHG8DF", "name": "Hayley Fink", "address": "Sandrartstra\u00dfe 93 Berlin", "lat": 49.4605638, "lng": 11.0620239}, {"id": "HRI17OVH6GP", "name": "Suki Schmidt", "address": "Martin-Luther-Stra\u00dfe 60 Berlin", "lat": 52.4910678, "lng": 13.3448188}, {"id": "GHR75XNN2WD", "name": "Britanney Brugger", "address": "Promenadepl. 33 Berlin", "lat": 48.1398682, "lng": 11.5718079}, {"id": "BTO18VBF8RY", "name": "Katell Friedmann", "address": "Dienerstra\u00dfe 92 Berlin", "lat": 47.3797183, "lng": 8.5244696}, {"id": "TTV04OVJ3HH", "name": "Boris Wolf", "address": "Adalbertstra\u00dfe 51 Berlin", "lat": 52.508057, "lng": 13.4241052}, {"id": "RSX78OPV2FI", "name": "Maite Karlmann", "address": "Dienerstra\u00dfe 10 Berlin", "lat": 52.52000659999999, "lng": 13.404954}, {"id": "VGJ22GOC5KK", "name": "Igor Schmitt", "address": "Oldesloer Strasse  65 Berlin", "lat": 52.5337995, "lng": 13.1478776}, {"id": "IVD07PLV6VN", "name": "Cole Brugger", "address": "Augustenstra\u00dfe 49 Berlin", "lat": 52.5279189, "lng": 13.4010582}, {"id": "QFE77NNK7ZW", "name": "Lawrence Schmidt", "address": "Kanalstra\u00dfe 93 Berlin", "lat": 52.4269488, "lng": 13.5080401}, {"id": "KUL58YJU7PP", "name": "Trevor Schmid", "address": "Helene-Mayer-Ring 81 Berlin", "lat": 48.1828866, "lng": 11.5530538}, {"id": "QXJ11HHW4BF", "name": "Elliott Pfeiffer", "address": "Sandrartstra\u00dfe 49 Berlin", "lat": 49.4606538, "lng": 11.0624798}, {"id": "LEP94NPT9EN", "name": "Indira Maier", "address": "Sandrartstra\u00dfe 54 Berlin", "lat": 49.4609059, "lng": 11.0621922}, {"id": "LMF89LKG2BN", "name": "Nina K\u00c3\u00b6hler", "address": "Isartorpl. 49 Berlin", "lat": 48.1347006, "lng": 11.5820222}, {"id": "XSQ44HQS2BX", "name": "Asher Dietrich", "address": "Promenadepl. 7 Berlin", "lat": 48.1397497, "lng": 11.57327}, {"id": "FPZ12EPG7TE", "name": "Colorado Michaelis", "address": "Leopoldstra\u00dfe 83 Berlin", "lat": 52.5035299, "lng": 13.4858389}, {"id": "PYU26EHF6SG", "name": "Ezekiel Neumann", "address": "Augustenstra\u00dfe 67 Berlin", "lat": 52.5269142, "lng": 13.3953854}, {"id": "KUW28FFL6LB", "name": "Halee Schinacher", "address": "Stollbergstra\u00dfe 5 Berlin", "lat": 52.46518, "lng": 13.38007}, {"id": "LQB81BRK3YY", "name": "Cody Jacobi", "address": "Leopoldstra\u00dfe 62 Berlin", "lat": 52.5035299, "lng": 13.4858389}, {"id": "BVE44DKX9HW", "name": "Cheryl Wolf", "address": "Martin-Luther-Stra\u00dfe 53 Berlin", "lat": 52.49178389999999, "lng": 13.3455008}, {"id": "FQI86PSM2XE", "name": "Kameko Pohl", "address": "Prinzregentenstra\u00dfe 65 Berlin", "lat": 52.4833493, "lng": 13.3334972}, {"id": "LZB33KFW8WK", "name": "Kirsten Jansen", "address": "Schwanseestra\u00dfe 23 Berlin", "lat": 48.10751010000001, "lng": 11.5963606}, {"id": "YFL64KIG6CU", "name": "Bell Noack", "address": "Ledererstra\u00dfe 53 Berlin", "lat": 48.13684170000001, "lng": 11.5798701}, {"id": "BEJ56BCO1ER", "name": "Kiara Fuchs", "address": "Sandrartstra\u00dfe 25 Berlin", "lat": 48.1404083, "lng": 11.5075323}, {"id": "GWM77CTJ6EN", "name": "Gareth Braun", "address": "Fallmerayerstra\u00dfe 50 Berlin", "lat": 48.16471980000001, "lng": 11.5715314}, {"id": "WJU25RHW2AR", "name": "Quinn Schulz", "address": "Adalbertstra\u00dfe 14 Berlin", "lat": 52.5015387, "lng": 13.4196713}, {"id": "GOV70DQS1IX", "name": "Emmanuel Sauer", "address": "Helene-Mayer-Ring 13 Berlin", "lat": 48.1807899, "lng": 11.5527337}, {"id": "CNB98UNW3VW", "name": "Tyler Richter", "address": "Kurfuerstendamm  56 Berlin", "lat": 52.5011644, "lng": 13.3147763}, {"id": "JIS52PDF8IP", "name": "Jermaine Fink", "address": "Martin-Luther-Stra\u00dfe 35 Berlin", "lat": 52.49489459999999, "lng": 13.3465308}, {"id": "LJO56HOB1WM", "name": "Hedy Bauer", "address": "Helene-Mayer-Ring 53 Berlin", "lat": 48.1828866, "lng": 11.5530538}, {"id": "HOH45ASS4TW", "name": "Tyler Singer", "address": "H\u00e4berlstra\u00dfe 40 Berlin", "lat": 48.1271105, "lng": 11.5584319}, {"id": "CFJ78HPJ8PT", "name": "Maisie Wenzler", "address": "Westendstra\u00dfe 34 Berlin", "lat": 52.4443589, "lng": 13.5629116}, {"id": "ERE60LQB4GH", "name": "Brooke Kaiser", "address": "Isartorpl. 44 Berlin", "lat": 48.1347006, "lng": 11.5820222}, {"id": "IRH96EUQ7AG", "name": "Prescott Hahn", "address": "Rosenstrasse  44 Berlin", "lat": 52.44589060000001, "lng": 13.57467}, {"id": "QCL33NIB2JW", "name": "Rhonda Brugger", "address": "Landsberger Allee  20 Berlin", "lat": 52.5231278, "lng": 13.4363802}, {"id": "TDQ40IHC0QM", "name": "Alisa Peters", "address": "Buttermelcherstra\u00dfe 31 Berlin", "lat": 48.132071, "lng": 11.5799328}, {"id": "XUX88IVG4ZL", "name": "Leila Richter", "address": "Oldesloer Strasse  67 Berlin", "lat": 52.6032145, "lng": 13.4842903}, {"id": "QFD12XBT3RP", "name": "Steven K\u00c3\u00b6hler", "address": "Westendstra\u00dfe 33 Berlin", "lat": 52.4444343, "lng": 13.5635518}, {"id": "OJU74RCO4PJ", "name": "Justina Schulz", "address": "Prinzregentenstra\u00dfe 94 Berlin", "lat": 52.49181240000001, "lng": 13.3333819}, {"id": "NDD21OHJ8TM", "name": "Carissa Schumann", "address": "Augustenstra\u00dfe 13 Berlin", "lat": 52.52647100000001, "lng": 13.3944038}, {"id": "WLO27LIO5YB", "name": "Barrett Vogel", "address": "Promenadepl. 62 Berlin", "lat": 48.1406613, "lng": 11.5717981}, {"id": "TWM34UFA2CU", "name": "Alea Prinz", "address": "Prinzregentenstra\u00dfe 40 Berlin", "lat": 52.4797537, "lng": 13.332499}, {"id": "FIH18KOY8GV", "name": "Xavier Schmitt", "address": "Isartorpl. 34 Berlin", "lat": 52.5085949, "lng": 13.3773765}, {"id": "AHX45TYU5WS", "name": "Latifah Kienzle", "address": "H\u00e4berlstra\u00dfe 85 Berlin", "lat": 48.1264697, "lng": 11.5584151}, {"id": "DEW78PEF1IK", "name": "Uta Hartmann", "address": "Orlandostra\u00dfe 67 Berlin", "lat": 48.137559, "lng": 11.5793687}, {"id": "FPT33ATP3HS", "name": "Reese Lehmann", "address": "Augustenstra\u00dfe 43 Berlin", "lat": 52.5282457, "lng": 13.4028227}, {"id": "RGL81QYM4UT", "name": "Claudia Wolff", "address": "Rhinstrasse  24 Berlin", "lat": 52.510467, "lng": 13.5198043}, {"id": "YEE47XXE0OY", "name": "Britanni Wenzler", "address": "Landsberger Allee  55 Berlin", "lat": 52.5252326, "lng": 13.4429542}, {"id": "TKA15KPR5CU", "name": "Nerea Schneider", "address": "Isartorpl. 66 Berlin", "lat": 48.1347006, "lng": 11.5820222}, {"id": "IWS98OLL5IL", "name": "Xander Weber", "address": "Elsenheimerstra\u00dfe 79 Berlin", "lat": 48.13569340000001, "lng": 11.5245373}, {"id": "SUN11FAP7YA", "name": "Carissa Wagner", "address": "Elsenheimerstra\u00dfe 33 Berlin", "lat": 48.1388839, "lng": 11.5212837}, {"id": "FPT12OFH1QF", "name": "Garth Arnold", "address": "Kurfuerstendamm  64 Berlin", "lat": 52.5006961, "lng": 13.3106071}, {"id": "HCY40GKV6LO", "name": "Hedda Schwarz", "address": "Oldesloer Strasse  32 Berlin", "lat": 52.53387, "lng": 13.14896}, {"id": "ARX51KUG1LR", "name": "Howard Werner", "address": "Viktualienmarkt 5 Berlin", "lat": 52.52000659999999, "lng": 13.404954}, {"id": "FDK35KWB6RO", "name": "Renee Schulz", "address": "Kanalstra\u00dfe 13 Berlin", "lat": 52.4312097, "lng": 13.4974408}, {"id": "DUL56DYY0GZ", "name": "Maxwell Wagner", "address": "Isartorpl. 39 Berlin", "lat": 48.1347006, "lng": 11.5820222}, {"id": "WFU22OUR7GS", "name": "Mari Cla\u00c3\u0178en", "address": "Leopoldstra\u00dfe 45 Berlin", "lat": 52.5035299, "lng": 13.4858389}, {"id": "LLV60OBD6GY", "name": "Clark Fuchs", "address": "H\u00e4berlstra\u00dfe 44 Berlin", "lat": 48.1271105, "lng": 11.5584319}]