[{"id": "S_11", "title": "Munich Airport (DE)", "subtitle": "Terminalstr. Mitte/MWZ, 85356 M\u00fcnchen, Germany", "type": "station", "subtypes": ["car", "airport", "pickup"], "lat": 48.3538809, "lng": 11.7870715}, {"id": "S_40196", "title": "Munich Laim Train Station (DE)", "subtitle": "Wotanstr. 9, 80639 M\u00fcnchen, Germany", "type": "station", "subtypes": ["car", "truck", "railway", "delivery", "collection", "pickup"], "lat": 48.1460999, "lng": 11.5029162}, {"id": "S_168", "title": "Munich Central Train Station (DE)", "subtitle": "Arnulfstr. 16/18, 80335 M\u00fcnchen, Germany", "type": "station", "subtypes": ["car", "eCar", "railway", "pickup"], "lat": 48.14192269999999, "lng": 11.5581821}, {"id": "S_5", "title": "Munich Pasing Station 24h (DE)", "subtitle": "Josef-Felder-Str. 53, 81241 M\u00fcnchen, Germany", "type": "station", "subtypes": ["car", "railway", "delivery", "collection", "pickup"], "lat": 48.1484785, "lng": 11.462919}, {"id": "S_1831", "title": "Munich Giesing (DE)", "subtitle": "Tegernseer Landstr. 163, 81539 M\u00fcnchen, Germany", "type": "station", "subtypes": ["car", "downtown", "delivery", "collection", "pickup"], "lat": 48.1095862, "lng": 11.5793277}, {"id": "S_6646", "title": "Munich Sendling (DE)", "subtitle": "Luise-Kiesselbach-Platz 35, 81377 M\u00fcnchen, Germany", "type": "station", "subtypes": ["car", "truck", "downtown", "delivery", "collection", "pickup"], "lat": 48.1129775, "lng": 11.5163869}, {"id": "S_8006", "title": "Munich Pullach (DE)", "subtitle": "Zugspitzstr. 1, 82049 Pullach i. Isartal, Germany", "type": "station", "subtypes": ["car", "downtown", "requiresAddressAndPayment", "pickup"], "lat": 48.0429973, "lng": 11.5111172}, {"id": "S_1225", "title": "Munich Ottobrunn (DE)", "subtitle": "Alte Landstr. 17, 85521 M\u00fcnchen-Ottobrunn, Germany", "type": "station", "subtypes": ["car", "truck", "downtown", "delivery", "collection", "pickup"], "lat": 48.0737543, "lng": 11.6532868}, {"id": "S_7325", "title": "Munich Schwabing (DE)", "subtitle": "Anni-Albers-Strasse 11, 80807 M\u00fcnchen, Germany", "type": "station", "subtypes": ["car", "downtown", "delivery", "collection", "pickup"], "lat": 48.1776721, "lng": 11.5913309}, {"id": "S_41137", "title": "Munich Freiham (DE)", "subtitle": "Hans-St\u00fctzle-Str. 20, 81249 M\u00fcnchen, Germany", "type": "station", "subtypes": ["car", "downtown", "delivery", "collection", "pickup"], "lat": 48.13956779999999, "lng": 11.4101239}, {"id": "S_5252", "title": "Munich Garching (DE)", "subtitle": "Schlei\u00dfheimer Stra\u00dfe 89, 85748 Garching, Germany", "type": "station", "subtypes": ["car", "eCar", "downtown", "delivery", "collection", "pickup"], "lat": 48.24907409999999, "lng": 11.6262223}, {"id": "S_482", "title": "Munich Gr\u00fcnwald (DE)", "subtitle": "Bavariafilmplatz 7, Geb\u00e4ude 17, 82031 Gr\u00fcnwald, Germany", "type": "station", "subtypes": ["car", "truck", "downtown", "delivery", "collection", "pickup"], "lat": 48.063097, "lng": 11.5521639}, {"id": "S_380", "title": "Munich Haidhausen 24h (DE)", "subtitle": "Einsteinstr. 106, 81675 M\u00fcnchen, Germany", "type": "station", "subtypes": ["car", "downtown", "delivery", "collection", "pickup"], "lat": 48.1360588, "lng": 11.6088764}, {"id": "S_1", "title": "Munich Altstadt-Lehel (DE)", "subtitle": "Seitzstr. 9-11, 80538 M\u00fcnchen, Germany", "type": "station", "subtypes": ["car", "downtown", "delivery", "collection", "pickup"], "lat": 48.1407432, "lng": 11.5845315}, {"id": "S_6647", "title": "Munich Messestadt Riem (DE)", "subtitle": "Willy-Brandt-Platz 5, 81829 M\u00fcnchen, Germany", "type": "station", "subtypes": ["car", "truck", "downtown", "delivery", "collection", "pickup"], "lat": 48.1322743, "lng": 11.6911359}, {"id": "S_5254", "title": "Munich Stachus (City) (DE)", "subtitle": "Karlsplatz 3, 80335 M\u00fcnchen, Germany", "type": "station", "subtypes": ["car", "truck", "eCar", "downtown", "delivery", "collection", "pickup"], "lat": 48.1399895, "lng": 11.566856}, {"id": "S_40257", "title": "Munich/Hotel Bayerischer Hof (DE)", "subtitle": "Promenadenplatz 2-6, 80333 M\u00fcnchen, Germany", "type": "station", "subtypes": ["car", "downtown", "requiresAddressAndPayment", "pickup"], "lat": 48.1403836, "lng": 11.5732223}, {"id": "S_44483", "title": "Munich/Hotel Westin Grand (DE)", "subtitle": "Arabellapark, Arabellastr. 6, 81925 M\u00fcnchen, Germany", "type": "station", "subtypes": ["car", "downtown", "delivery", "collection", "pickup"], "lat": 48.1520304, "lng": 11.6167206}, {"id": "S_40608", "title": "Munich/Hotel City Hilton (DE)", "subtitle": "Rosenheimer Str. 15, 81667 M\u00fcnchen, Germany", "type": "station", "subtypes": ["car", "downtown", "delivery", "collection", "pickup"], "lat": 48.1306282, "lng": 11.5925759}]